{
"type": "FeatureCollection",
"name": "pointsViewpoint",
"crs": { "type": "name", "properties": { "name": "urn:ogc:def:crs:OGC:1.3:CRS84" } },
"features": [
{ "type": "Feature", "properties": { "name": "beachZalewMietkowski", "icon": "viewpointMarker", "category": "viewpoint" }, "geometry": { "type": "Point", "coordinates": [ 16.623377626155509, 50.967005067177155 ] } },
{ "type": "Feature", "properties": { "name": "embankmentZalewMietkowski", "icon": "viewpointMarker", "category": "viewpoint" }, "geometry": { "type": "Point", "coordinates": [ 16.639126708133663, 50.968774208098452 ] } },
{ "type": "Feature", "properties": { "name": "viewpointKsiezePark", "icon": "viewpointMarker", "category": "viewpoint" }, "geometry": { "type": "Point", "coordinates": [ 16.775414936092794, 51.033293716502456 ] } },
{ "type": "Feature", "properties": { "name": "viewpointMostekKsiazePark", "icon": "viewpointMarker", "category": "viewpoint" }, "geometry": { "type": "Point", "coordinates": [ 16.776329925348389, 51.034320638607277 ] } },
{ "type": "Feature", "properties": { "name": "viewpoint_KladkaNaBystrzycy", "icon": "viewpointMarker", "category": "viewpoint" }, "geometry": { "type": "Point", "coordinates": [ 16.777707352566736, 51.032238905019746 ] } },
{ "type": "Feature", "properties": { "name": "viewpoint1Ksieze", "icon": "viewpointMarker", "category": "viewpoint" }, "geometry": { "type": "Point", "coordinates": [ 16.778218706644914, 51.031283173613467 ] } },
{ "type": "Feature", "properties": { "name": "viewpointProszkowice", "icon": "viewpointMarker", "category": "viewpoint" }, "geometry": { "type": "Point", "coordinates": [ 16.675344410377619, 50.956388806614797 ] } }
]
}
